City_ID,City,Lat,Lng,Max Temp,Humidity,Cloudiness,Wind Speed,Country,Date
0,Kapaa,22.0752,-159.319,79.12,76,100,11.5,US,1677967543
1,Aasiaat,68.7098,-52.8699,13.84,93,50,7.45,GL,1677967543
2,Kangaatsiaq,68.3065,-53.4641,13.66,94,20,5.41,GL,1677967543
3,Punta Arenas,-53.15,-70.9167,46.51,61,75,11.5,CL,1677967544
4,Shellbrook,53.2168,-106.4011,15.03,81,100,5.93,CA,1677967331
5,Atuona,-9.8,-139.0333,80.06,79,13,12.37,PF,1677967544
6,Port Alfred,-33.5906,26.891,69.19,96,11,7.76,ZA,1677967306
7,Khatanga,71.9667,102.5,-7.78,99,100,6.58,RU,1677967544
8,Bluff,-46.6,168.3333,51.8,65,83,8.14,NZ,1677967545
9,Machilipatnam,16.1667,81.1333,74.73,76,0,2.8,IN,1677967545
10,Aklavik,68.2191,-135.0107,-18.4,76,20,4.61,CA,1677967545
11,Yulara,-25.2406,130.9889,73.31,21,0,2.91,AU,1677967545
12,Jamestown,42.097,-79.2353,37.02,92,100,8.05,US,1677967300
13,Brae,60.3964,-1.353,35.89,80,100,11.5,GB,1677967546
14,Skibbereen,51.55,-9.2667,41.11,68,97,5.86,IE,1677967546
15,Tigil',57.8,158.6667,-2.43,97,96,5.7,RU,1677967546
16,Cumpas,29.9833,-109.7833,73.02,16,0,11.16,MX,1677967547
17,Bodmin,50.4715,-4.7243,39.16,70,100,6.91,GB,1677967547
18,Touros,-5.1989,-35.4608,80.4,77,91,13.49,BR,1677967547
19,Hilo,19.7297,-155.09,77.29,87,45,4.0,US,1677967328
20,Lorengau,-2.0226,147.2712,78.91,82,100,7.65,PG,1677967548
21,Hauterive,46.0901,3.4459,38.16,91,45,3.76,FR,1677967548
22,Albany,42.6001,-73.9662,36.64,90,100,3.8,US,1677967549
23,Mahébourg,-20.4081,57.7,80.26,88,75,3.44,MU,1677967549
24,George Town,5.4112,100.3354,78.73,77,20,6.91,MY,1677967400
25,Caravelas,-17.7125,-39.2481,76.1,81,40,5.26,BR,1677967549
26,Taoudenni,22.6783,-3.9836,78.01,13,11,11.32,ML,1677967550
27,Margate,51.3813,1.3862,42.91,84,100,3.0,GB,1677967327
28,Roald,62.5833,6.1333,34.75,69,40,8.05,NO,1677967550
29,Yangi Marg`ilon,40.4272,71.7189,45.32,76,27,2.3,UZ,1677967463
30,Alekseyevsk,57.8406,108.3492,15.57,87,100,12.73,RU,1677967550
31,Castro,-24.7911,-50.0119,66.78,96,74,4.07,BR,1677967551
32,Hobart,-42.8794,147.3294,65.23,94,75,8.05,AU,1677967551
33,Barrow,71.2906,-156.7887,-29.18,68,20,11.5,US,1677967551
34,Husavik,66.0449,-17.3389,33.28,97,100,2.46,IS,1677967383
35,Campeche,19.0,-90.5,90.64,46,30,8.84,MX,1677967552
36,Rincon,32.296,-81.2354,80.56,36,40,11.5,US,1677967552
37,Carnarvon,-24.8667,113.6333,77.34,67,0,21.21,AU,1677967298
38,Pandan,14.0453,124.1694,75.29,84,100,20.22,PH,1677967552
39,Constitución,-35.3333,-72.4167,68.2,53,6,17.11,CL,1677967552
40,Riyadh,24.6877,46.7219,69.94,24,1,9.31,SA,1677967523
41,Ushuaia,-54.8,-68.3,46.02,70,40,18.41,AR,1677967553
42,Andenes,69.3143,16.1194,30.24,81,100,35.84,NO,1677967553
43,Mar del Plata,-38.0023,-57.5575,66.83,80,20,11.5,AR,1677967553
44,Nikolskoye,59.7035,30.7861,30.09,98,98,4.41,RU,1677967554
45,Iqaluit,63.7506,-68.5145,24.53,73,100,12.66,CA,1677967554
46,Klaksvík,62.2266,-6.589,34.72,88,100,12.57,FO,1677967564
47,Meulaboh,4.1363,96.1285,74.59,88,66,3.56,ID,1677967565
48,Coquimbo,-29.9533,-71.3436,64.13,88,40,10.36,CL,1677967565
49,Desnogorsk,54.1508,33.2815,21.33,87,75,10.13,RU,1677967565
50,Puerto Ayora,-0.7393,-90.3518,82.36,86,81,8.99,EC,1677967566
51,Yellowknife,62.456,-114.3525,-10.68,64,20,12.66,CA,1677967286
52,Ihosy,-22.4,46.1167,67.33,99,100,4.72,MG,1677967566
53,Venice of the Philippines,4.6628,119.3928,80.64,75,99,15.1,PH,1677967567
54,Haines Junction,60.7522,-137.5108,6.75,43,73,13.8,CA,1677967567
55,Kismayo,-0.3582,42.5454,78.31,80,7,17.05,SO,1677967567
56,Vavozh,56.7751,51.931,22.32,98,99,3.58,RU,1677967568
57,Faanui,-16.4833,-151.75,82.04,71,100,9.33,PF,1677967568
58,Saskylakh,71.9167,114.0833,-24.47,100,95,3.31,RU,1677967568
59,Chicama,-7.8447,-79.1469,73.94,63,97,8.55,PE,1677967569
60,Mataura,-46.1927,168.8643,51.48,85,83,1.12,NZ,1677967569
61,Busselton,-33.65,115.3333,61.7,68,74,8.25,AU,1677967448
62,Sebrovo,50.0981,43.2976,36.82,82,100,17.72,RU,1677967569
63,Oussouye,12.485,-16.5469,75.38,67,58,6.22,SN,1677967570
64,Maningrida,-12.0667,134.2667,78.39,82,89,12.37,AU,1677967570
65,São José da Coroa Grande,-8.8978,-35.1478,80.04,75,5,8.48,BR,1677967570
66,Souillac,-20.5167,57.5167,77.38,88,75,3.44,MU,1677967570
67,Juruti,-2.1522,-56.0922,76.37,93,64,4.99,BR,1677967571
68,Tocopilla,-22.092,-70.1979,73.58,73,100,4.27,CL,1677967571
69,Goundam,16.4145,-3.6708,83.1,10,99,9.6,ML,1677967571
70,Cabinda,-5.55,12.2,80.74,83,0,6.91,AO,1677967572
71,Chokurdakh,70.6333,147.9167,-36.33,96,18,5.73,RU,1677967572
72,Vaini,-21.2,-175.2,87.96,74,75,19.57,TO,1677967573
73,Muravlenko,63.7898,74.523,-18.96,100,85,6.35,RU,1677967573
74,Ahipara,-35.1667,173.1667,68.09,64,80,12.68,NZ,1677967573
75,Los Llanos de Aridane,28.6585,-17.9182,64.15,89,75,3.44,ES,1677967573
76,San Patricio,28.017,-97.5169,83.16,37,0,12.75,US,1677967574
77,Verkhoyansk,67.5447,133.385,-17.37,100,96,1.72,RU,1677967574
78,Ostrovnoy,68.0531,39.5131,9.01,92,100,8.34,RU,1677967574
79,Sakaraha,-22.9,44.5333,70.52,91,100,16.71,MG,1677967575
80,Tuktoyaktuk,69.4541,-133.0374,-27.4,68,20,5.75,CA,1677967575
81,Nome,64.5011,-165.4064,17.67,93,100,18.41,US,1677967407
82,Tessalit,20.1986,1.0114,76.51,8,86,6.29,ML,1677967575
83,Pūrna,19.1833,77.05,78.17,26,10,8.19,IN,1677967576
84,Adrar,20.5022,-10.0711,74.26,19,100,8.34,MR,1677967576
85,Cape Town,-33.9258,18.4232,69.12,88,75,5.75,ZA,1677967304
86,Berlevåg,70.8578,29.0864,24.75,80,100,28.77,NO,1677967576
87,Longyearbyen,78.2186,15.6401,3.04,60,75,20.71,SJ,1677967448
88,Tikhvin,59.6451,33.5294,16.7,97,78,4.68,RU,1677967577
89,Okhotsk,59.3833,143.3,-10.46,99,100,5.64,RU,1677967577
90,Port-Gentil,-0.7193,8.7815,82.36,83,40,12.66,GA,1677967578
91,Sur,22.5667,59.5289,76.05,53,13,8.68,OM,1677967578
92,Rikitea,-23.1203,-134.9692,79.86,75,100,17.43,PF,1677967588
93,Thinadhoo,0.5333,72.9333,81.61,73,65,6.26,MV,1677967588
94,New Norfolk,-42.7826,147.0587,64.89,70,100,1.99,AU,1677967589
95,Lebu,-37.6167,-73.65,59.81,66,0,17.22,CL,1677967373
96,Dalbandin,28.8947,64.4101,64.78,44,1,4.36,PK,1677967589
97,Sirūr,18.8333,74.3833,79.25,29,39,7.2,IN,1677967589
98,Severo-Kuril'sk,50.6789,156.125,21.58,72,99,17.81,RU,1677967590
99,Nuevo Progreso,23.1667,-97.95,77.9,46,40,5.99,MX,1677967590
100,Peniche,39.3558,-9.3811,53.29,86,100,11.12,PT,1677967336
101,Lüderitz,-26.6481,15.1594,61.9,85,0,4.05,NA,1677967590
102,Araouane,18.9048,-3.5265,78.33,9,86,7.45,ML,1677967590
103,Mwandiga,-4.83,29.6581,70.99,94,20,0.0,TZ,1677967591
104,Asău,46.4333,26.4,36.28,84,9,5.32,RO,1677967591
105,Chui,-33.6971,-53.4616,72.3,75,35,7.27,UY,1677967591
106,Ca Mau,9.1769,105.15,73.98,76,100,9.19,VN,1677967592
107,Kalmunai,7.4167,81.8167,76.21,89,99,7.0,LK,1677967592
108,Nsunga,-1.1439,31.3947,62.82,87,98,3.02,TZ,1677967592
109,Broken Hill,-31.95,141.4333,78.39,24,0,1.88,AU,1677967593
110,Saint-Philippe,-21.3585,55.7679,76.59,88,100,3.06,RE,1677967593
111,Mergen,49.1833,125.2167,26.74,77,31,13.94,CN,1677967593
112,Takaungu,-3.6837,39.8566,77.16,84,78,11.36,KE,1677967593
113,Bonthe,7.5264,-12.505,77.56,90,19,3.96,SL,1677967594
114,Pointe Michel,15.25,-61.3833,80.89,75,7,14.12,DM,1677967594
115,Homer,59.6425,-151.5483,26.49,29,0,13.8,US,1677967594
116,Provideniya,64.3833,-173.3,22.51,97,100,7.56,RU,1677967595
117,Saint-Pierre,-21.3393,55.4781,77.58,94,0,2.3,RE,1677967168
118,Ponta do Sol,32.6667,-17.1,68.0,90,50,4.27,PT,1677967595
119,Aswān,24.0934,32.907,81.7,17,0,4.61,EG,1677967595
120,Vardø,70.3705,31.1107,28.38,100,100,35.68,NO,1677967596
121,Nioro,13.35,-15.75,77.29,33,85,7.99,GM,1677967596
122,Shimoda,34.6667,138.95,46.11,80,98,16.51,JP,1677967596
123,Dingle,10.9995,122.6711,74.66,85,88,10.02,PH,1677967596
124,Bilma,18.6853,12.9164,84.4,11,0,7.45,NE,1677967597
125,Saldanha,-33.0117,17.9442,66.25,89,100,8.52,ZA,1677967451
126,Cherskiy,68.75,161.3,-25.65,85,72,1.41,RU,1677967597
127,Rancho Cucamonga,34.1064,-117.5931,61.02,58,75,12.66,US,1677967417
128,Nuuk,64.1835,-51.7216,32.14,90,98,6.11,GL,1677967598
129,Bredasdorp,-34.5322,20.0403,67.1,93,96,2.13,ZA,1677967598
130,Flinders,-34.5833,150.8552,76.05,81,27,8.99,AU,1677967598
131,Port Saint John,28.477,-80.7887,90.01,50,0,13.8,US,1677967598
132,Zhigansk,66.7697,123.3711,2.21,97,100,11.81,RU,1677967599
133,Geraldton,-28.7667,114.6,63.01,82,0,8.05,AU,1677967389
134,Thompson,55.7435,-97.8558,17.76,79,100,6.91,CA,1677967599
135,Narsaq,60.9167,-46.05,50.22,85,33,5.28,GL,1677967600
136,Hasaki,35.7333,140.8333,43.21,62,100,15.48,JP,1677967534
137,Tabuk,17.4189,121.4443,65.1,84,98,7.29,PH,1677967600
138,Saint-Leu,-21.15,55.2833,77.95,92,100,4.07,RE,1677967600
139,Kutum,14.2,24.6667,68.77,10,25,8.21,SD,1677967601
140,Sept-Îles,50.2001,-66.3821,18.07,85,51,5.82,CA,1677967611
141,Esperance,-33.8667,121.9,65.37,63,98,15.9,AU,1677967611
142,Iranshahr,27.2025,60.6848,72.66,44,41,2.21,IR,1677967611
143,Kuchinda,21.7333,84.35,67.44,28,0,2.28,IN,1677967612
144,Maceió,-9.6658,-35.7353,81.84,78,20,8.05,BR,1677967336
145,Zheleznodorozhnyy,55.7503,38.0042,30.42,93,100,9.62,RU,1677967612
146,Saint George,37.1041,-113.5841,58.24,42,20,5.99,US,1677967612
147,Avarua,-21.2078,-159.775,86.05,70,40,13.8,CK,1677967612
148,Hermanus,-34.4187,19.2345,67.8,90,96,6.78,ZA,1677967613
149,Itarema,-2.9248,-39.9167,79.9,82,97,11.79,BR,1677967613
150,Chirongui,-12.9319,45.1483,84.13,79,100,15.5,YT,1677967613
151,Longkou,37.6508,120.3286,41.99,70,81,10.69,CN,1677967613
152,Meridian,43.6121,-116.3915,43.65,63,75,21.85,US,1677967382
153,Cidreira,-30.1811,-50.2056,73.8,92,55,4.23,BR,1677967454
154,East London,-33.0153,27.9116,72.7,86,20,9.37,ZA,1677967614
155,Ponta Delgada,37.7333,-25.6667,59.72,67,20,16.11,PT,1677967614
156,Arraial do Cabo,-22.9661,-42.0278,80.56,73,0,18.41,BR,1677967555
157,Paka,4.6374,103.4368,74.37,86,100,9.51,MY,1677967614
158,Bandar,2.05,99.75,70.14,98,100,2.66,ID,1677967615
159,Bengkulu,-3.8004,102.2655,73.13,90,95,4.29,ID,1677967615
160,Muros,42.7762,-9.0603,44.1,82,0,4.76,ES,1677967615
161,Bambous Virieux,-20.3428,57.7575,80.22,80,100,2.89,MU,1677967615
162,Krasnaya Gora,52.9995,31.6023,25.36,73,38,17.36,RU,1677967616
163,Viedma,-40.8135,-62.9967,71.76,29,38,20.96,AR,1677967616
164,Butaritari,3.0707,172.7902,81.23,77,92,6.78,KI,1677967616
165,Nador,35.174,-2.9287,55.65,67,0,3.44,MA,1677967616
166,Monrovia,6.3005,-10.7969,80.37,88,5,7.09,LR,1677967490
167,Aripuanã,-9.1667,-60.6333,78.39,90,100,1.28,BR,1677967617
168,Enterprise,36.0252,-115.2419,63.7,22,75,31.07,US,1677967617
169,Alta Floresta,-9.8756,-56.0861,77.95,89,42,3.53,BR,1677967617
170,Sabang,5.8933,95.3214,81.32,73,72,18.07,ID,1677967618
171,Kahului,20.8947,-156.47,75.22,83,75,17.27,US,1677967579
172,Hithadhoo,-0.6,73.0833,81.55,74,55,5.1,MV,1677967618
173,Banda Aceh,5.5577,95.3222,77.43,75,99,7.49,ID,1677967618
174,Houma,29.5958,-90.7195,75.2,42,4,7.92,US,1677967618
175,Norrtälje,59.758,18.705,30.02,65,97,10.67,SE,1677967619
176,Bubaque,11.2833,-15.8333,75.72,66,52,13.29,GW,1677967619
177,Evensk,61.95,159.2333,-21.71,96,100,5.55,RU,1677967619
178,Norman Wells,65.282,-126.8329,-8.73,90,87,10.38,CA,1677967619
179,Saint Paul Harbor,57.79,-152.4072,33.31,40,0,16.11,US,1677967620
180,Bethel,41.3712,-73.414,42.94,75,100,6.91,US,1677967617
181,Griffith,41.5284,-87.4237,47.1,76,75,13.8,US,1677967620
182,Vaitape,-16.5167,-151.75,82.06,71,100,9.26,PF,1677967620
183,Arlit,18.7369,7.3853,81.81,10,80,10.78,NE,1677967621
184,Padang,-0.9492,100.3543,75.54,85,79,5.06,ID,1677967464
185,Jalu,29.0331,21.5482,61.3,72,76,17.72,LY,1677967631
186,Atar,20.5169,-13.0499,75.92,20,1,8.01,MR,1677967631
187,Faya,18.3851,42.4509,55.92,57,21,3.53,SA,1677967631
188,Tiksi,71.6872,128.8694,-1.26,100,100,1.95,RU,1677967632
189,Lugovskoy,56.9585,64.529,24.17,95,100,7.67,RU,1677967632
190,Guerrero Negro,27.9769,-114.0611,62.87,56,0,18.3,MX,1677967431
191,Sapa,5.1544,120.3241,79.21,82,87,10.74,PH,1677967632
192,Qaqortoq,60.7167,-46.0333,26.74,91,73,6.44,GL,1677967633
193,Vilhena,-12.7406,-60.1458,79.02,83,75,2.3,BR,1677967584
194,Teeli,51.0333,90.2333,6.58,70,78,4.23,RU,1677967633
195,Moctezuma,29.8,-109.6667,74.68,14,0,9.19,MX,1677967634
196,Jumla,29.2747,82.1838,39.78,71,1,4.76,NP,1677967634
197,Gamboma,-1.8764,15.8644,80.94,50,100,2.08,CG,1677967634
198,Sisimiut,66.9395,-53.6735,22.03,87,13,3.15,GL,1677967634
199,Aleksandrov Gay,50.147,48.5704,31.59,84,100,12.73,RU,1677967635
200,Rapid Valley,44.0625,-103.1463,41.63,61,0,20.71,US,1677967635
201,Vila Franca do Campo,37.7167,-25.4333,59.41,75,100,16.02,PT,1677967635
202,Mossamedes,-15.1961,12.1522,69.12,72,0,7.78,AO,1677967636
203,Agadir,30.4202,-9.5982,59.45,84,100,3.85,MA,1677967636
204,Don Luan,11.5333,106.9167,67.3,72,59,6.53,VN,1677967636
205,Torbay,47.6666,-52.7314,25.39,61,56,7.0,CA,1677967637
206,Ifanadiana,-21.3,47.6333,69.76,100,100,0.83,MG,1677967637
207,Krasnosel'kup,65.7,82.4667,-8.28,98,98,10.29,RU,1677967638
208,La Ronge,55.1001,-105.2842,10.29,80,100,11.63,CA,1677967638
209,Panjakent,39.4952,67.6093,50.13,48,95,10.87,TJ,1677967638
210,Verkhnyaya Syrovatka,50.829,34.9586,31.73,80,70,17.0,UA,1677967639
211,Ruthin,53.1137,-3.3178,40.32,78,78,3.31,GB,1677967639
212,Douentza,14.9951,-2.9517,82.0,12,26,4.54,ML,1677967639
213,Noyabrsk,63.1994,75.4507,-14.03,100,98,6.73,RU,1677967640
214,Cayenne,4.9333,-52.3333,80.64,78,75,10.36,GF,1677967516
215,Cedar City,37.6775,-113.0619,40.17,52,40,31.07,US,1677967640
216,Payakumbuh,-0.2202,100.6308,67.26,96,97,1.52,ID,1677967640
217,Upernavik,72.7868,-56.1549,8.47,80,95,7.2,GL,1677967641
218,Mehamn,71.0357,27.8492,24.71,86,100,24.16,NO,1677967641
219,Katsuura,35.1333,140.3,51.39,68,100,16.84,JP,1677967641
220,Lompoc,34.6391,-120.4579,57.52,57,0,5.75,US,1677967464
221,Quatre Cocos,-20.2078,57.7625,80.1,82,100,6.2,MU,1677967642
222,Ancud,-41.8697,-73.8203,56.91,72,83,10.4,CL,1677967642
223,Pangody,65.85,74.4859,-21.96,100,92,5.26,RU,1677967643
224,Sebeta,8.9167,38.6167,59.04,71,62,4.47,ET,1677967643
225,Udarnyy,54.3409,42.8611,30.45,97,100,12.17,RU,1677967643
226,San Andrés,12.5847,-81.7006,84.22,70,20,12.66,CO,1677967643
227,Lagoa,39.05,-27.9833,57.45,83,100,30.6,PT,1677967644
228,Hurghada,27.2574,33.8129,68.74,55,11,6.2,EG,1677967617
229,Salalah,17.0151,54.0924,75.29,73,0,3.44,OM,1677967644
230,Talnakh,69.4865,88.3972,-12.8,100,100,1.79,RU,1677967644
231,Cabo San Lucas,22.8909,-109.9124,75.61,52,0,6.91,MX,1677967503
232,Pevek,69.7008,170.3133,-25.26,93,100,4.56,RU,1677967645
233,Kruisfontein,-34.0033,24.7314,67.89,92,1,1.86,ZA,1677967655
234,Hong Kong,22.2855,114.1577,64.45,71,0,10.0,HK,1677967211
235,Laas,46.6166,10.7002,37.02,82,24,5.48,IT,1677967656
236,San Cristobal,7.7669,-72.225,80.78,61,89,4.81,VE,1677967386
237,Megion,61.0296,76.1136,0.01,98,99,7.29,RU,1677967656
238,Bradford,53.7939,-1.7521,39.83,79,75,8.05,GB,1677967656
239,Anadyr,64.75,177.4833,0.1,84,75,2.24,RU,1677967656
240,Kaitangata,-46.2817,169.8464,53.37,73,78,4.32,NZ,1677967657
241,Walvis Bay,-22.9575,14.5053,64.09,82,0,6.91,NA,1677967547
242,Kumul,42.8,93.45,43.12,30,51,5.84,CN,1677967657
243,Sola,-13.8833,167.55,81.66,79,49,21.12,VU,1677967657
244,Vila,42.0304,-8.1588,38.28,64,2,3.44,PT,1677967531
245,Qaanaaq,77.484,-69.3632,9.68,45,0,9.37,GL,1677967658
246,Kuandian,40.7286,124.7847,32.65,84,9,2.1,CN,1677967658
247,Dakoro,14.5106,6.765,82.8,13,1,6.2,NE,1677967658
248,Portland,45.5234,-122.6762,47.91,75,75,18.41,US,1677967465
249,Ishigaki,24.3448,124.1572,64.99,60,0,18.25,JP,1677967658
250,Pisco,-13.7,-76.2167,77.05,69,0,11.5,PE,1677967527
251,St-Jean-Port-Joli,47.2171,-70.2658,28.89,93,100,6.2,CA,1677967659
252,Lavrentiya,65.5833,-171.0,14.63,95,100,6.89,RU,1677967659
253,Kem',64.9555,34.5793,3.9,100,100,3.94,RU,1677967659
254,Falam,22.9167,93.6833,52.66,49,0,3.49,MM,1677967660
255,Bāfq,31.6128,55.4107,62.89,18,5,6.96,IR,1677967660
256,Dutlwe,-23.9833,23.9,74.88,36,22,2.48,BW,1677967660
257,Beloha,-25.1667,45.05,69.48,97,100,9.86,MG,1677967660
258,Warwick,41.7001,-71.4162,38.28,85,100,20.71,US,1677967410
259,Sitka,57.0531,-135.33,39.09,45,0,5.75,US,1677967661
260,Vanavara,60.34,102.2797,12.27,92,100,11.41,RU,1677967661
261,Toamasina,-18.1667,49.3833,77.16,88,97,5.84,MG,1677967661
262,Biograd na Moru,43.9433,15.4519,46.76,74,35,3.78,HR,1677967661
263,Mangai,-4.05,19.5333,75.04,75,100,0.56,CD,1677967662
264,Carballo,43.213,-8.691,49.42,88,0,3.24,ES,1677967662
265,Ezhou,30.4,114.8333,55.58,51,0,4.97,CN,1677967662
266,Sungai Penuh,-2.0833,101.3833,61.2,95,90,3.47,ID,1677967662
267,Phuket,8.0,98.25,77.22,88,20,2.3,TH,1677967663
268,Barpeta,26.3167,91.0,69.31,47,0,1.66,IN,1677967663
269,Dikson,73.5069,80.5464,-6.5,95,100,8.66,RU,1677967663
270,Hīt,33.6416,42.8251,65.55,34,1,6.93,IQ,1677967664
271,Inongo,-1.95,18.2667,78.51,64,100,0.94,CD,1677967664
272,Pacific Grove,36.6177,-121.9166,53.51,84,100,11.5,US,1677967664
273,Dubbo,-32.25,148.6167,66.33,77,40,9.22,AU,1677967482
274,Ust-Kuyga,70.0167,135.6,-7.8,99,100,4.99,RU,1677967665
275,Vao,-22.6667,167.4833,76.46,77,81,18.97,NC,1677967581
276,Aizawl,23.7333,92.7167,51.64,55,0,3.2,IN,1677967665
277,Pinehurst,35.1954,-79.4695,70.52,33,0,11.5,US,1677967665
278,Bagdarin,54.4333,113.6,15.73,73,70,7.11,RU,1677967666
279,Altay,47.8667,88.1167,20.61,71,98,6.76,CN,1677967676
280,Airai,-8.9266,125.4092,58.66,93,100,2.21,TL,1677967663
281,Bathsheba,13.2167,-59.5167,79.41,73,20,17.27,BB,1677967676
282,Porto Velho,-8.7619,-63.9039,84.25,74,40,13.8,BR,1677967447
283,Tasiilaq,65.6145,-37.6368,30.36,93,63,7.16,GL,1677967677
284,Sterling,39.0062,-77.4286,54.68,48,40,17.27,US,1677967484
285,Galesong,-5.3166,119.3661,75.22,82,100,4.74,ID,1677967677
286,Bairiki Village,1.3292,172.9752,84.2,74,40,8.05,KI,1677967677
287,Maungaturoto,-36.1,174.3667,68.13,64,6,9.17,NZ,1677967678
288,Rudnogorsk,57.2639,103.7519,13.53,89,99,11.05,RU,1677967678
289,Ürümqi,43.801,87.6005,23.95,86,90,2.24,CN,1677967678
290,Guilin,25.2819,110.2864,54.64,43,0,2.95,CN,1677967679
291,Villa Carlos Paz,-31.4241,-64.4978,89.38,40,0,5.01,AR,1677967679
292,Paita,-5.0892,-81.1144,79.54,70,19,11.97,PE,1677967679
293,Canning,22.3189,88.6714,80.62,31,0,6.15,IN,1677967680
294,Kozhva,65.1073,57.0459,-19.1,100,95,1.74,RU,1677967680
295,Zubova Polyana,54.0771,42.8372,30.74,96,100,14.2,RU,1677967680
296,Lenine,45.2986,35.7771,43.16,92,15,14.2,UA,1677967680
297,Alyangula,-13.8483,136.4192,78.51,82,99,18.79,AU,1677967681
298,Van Wert,40.8695,-84.5841,50.45,69,0,11.01,US,1677967681
299,Likhoslavl',57.1275,35.464,26.02,97,100,2.89,RU,1677967681
300,Peterhead,57.5058,-1.7981,39.6,77,100,6.6,GB,1677967681
301,Tandaltī,13.0167,31.8667,77.99,15,2,9.62,SD,1677967682
302,Ust'-Uda,54.1742,103.0304,13.6,87,100,3.2,RU,1677967682
303,Santa Teresa del Tuy,10.2341,-66.6631,82.15,64,57,5.88,VE,1677967683
304,Banjar,-8.19,114.9675,75.67,90,100,4.56,ID,1677967683
305,Ende,-8.8432,121.6623,76.03,85,98,4.25,ID,1677967683
306,Heyang,26.1011,107.473,54.68,70,98,0.96,CN,1677967683
307,São Filipe,14.8961,-24.4956,73.74,63,1,7.87,CV,1677967684
308,Waipawa,-41.4122,175.5153,57.18,76,99,7.7,NZ,1677967684
309,Nanton,50.3501,-113.7687,23.27,75,43,7.52,CA,1677967685
310,Tonantins,-2.8731,-67.8022,79.0,96,99,1.7,BR,1677967685
311,Ullapool,57.8987,-5.1604,39.34,97,100,4.54,GB,1677967685
312,Jega,12.2175,4.3792,84.96,15,2,4.72,NG,1677967685
313,Necochea,-38.5473,-58.7368,63.97,51,8,11.48,AR,1677967686
314,Najrān,17.4924,44.1277,69.55,28,95,7.43,SA,1677967686
315,Road Town,18.4167,-64.6167,80.69,65,40,9.22,VG,1677967686
316,Durban,-29.8579,31.0292,76.01,89,82,3.0,ZA,1677967687
317,Shawville,45.6001,-76.4827,32.86,100,100,3.78,CA,1677967687
318,Isangel,-19.55,169.2667,81.39,80,42,6.76,VU,1677967668
319,High Rock,26.6208,-78.2833,82.42,75,82,10.69,BS,1677967687
320,São Miguel do Araguaia,-13.275,-50.1628,77.86,78,52,4.18,BR,1677967630
321,Ţahţā,26.7693,31.5021,78.85,10,2,5.7,EG,1677967688
322,Port Elizabeth,-33.918,25.5701,71.89,99,100,4.61,ZA,1677967688
323,Nanortalik,60.1432,-45.2371,35.4,82,89,13.42,GL,1677967688
324,Bella Vista,36.4295,-94.2316,65.52,40,0,6.91,US,1677967699
325,Sinop Province,41.7711,34.8709,42.85,88,100,4.05,TR,1677967699
326,Bambanglipuro,-7.95,110.2833,77.58,88,100,5.75,ID,1677967699
327,Luangwa,-15.6167,30.4167,73.02,95,69,1.88,ZM,1677967699
328,Agirish,61.9247,63.0231,8.4,96,100,6.22,RU,1677967700
329,Tiznit Province,29.5833,-9.5,56.88,87,100,3.2,MA,1677967700
330,Hofn,64.2539,-15.2082,37.22,76,100,4.36,IS,1677967700
331,Ketchikan,55.3422,-131.6461,41.47,65,20,10.36,US,1677967700
332,Vestmannaeyjar,63.4427,-20.2734,40.51,83,99,12.68,IS,1677967701
333,Beyneu,45.3167,55.2,38.37,84,100,13.78,KZ,1677967701
334,Sarkand,45.41,79.9186,40.73,71,100,7.54,KZ,1677967701
335,Namatanai,-3.6667,152.4333,76.21,89,100,6.58,PG,1677967702
336,Tautira,-17.7333,-149.15,80.11,77,100,9.08,PF,1677967702
337,Ribeira Grande,38.5167,-28.7,60.78,87,100,21.99,PT,1677967702
338,Ulaangom,49.9811,92.0667,5.09,66,98,5.66,MN,1677967702
339,Arshan',46.2732,44.22,37.78,86,16,15.66,RU,1677967703
340,Khovd,48.0056,91.6419,22.91,42,100,9.66,MN,1677967703
341,Mt. Pleasant,32.7941,-79.8626,80.1,37,0,10.36,US,1677967429
342,Soyo,-6.1349,12.3689,78.98,80,99,6.78,AO,1677967703
343,Buala,-8.145,159.5921,80.51,80,100,8.14,SB,1677967704
344,Kiryat Gat,31.61,34.7642,65.39,51,0,4.65,IL,1677967564
345,Farnes,61.3167,7.8,23.88,99,98,3.36,NO,1677967704
346,Ondjiva,-17.0667,15.7333,74.07,26,8,10.71,AO,1677967705
347,Karratha,-20.7377,116.8463,84.09,75,65,10.69,AU,1677967705
348,Islamabad,33.7104,73.1338,59.85,64,71,6.24,PK,1677967705
349,Chardara,41.2547,67.9692,58.17,48,94,17.27,KZ,1677967705
350,Port Hedland,-20.3167,118.5667,82.45,78,75,8.05,AU,1677967706
351,Miles City,46.4083,-105.8406,40.17,35,0,3.44,US,1677967706
352,Naze,28.3667,129.4833,55.45,62,0,11.32,JP,1677967706
353,Tilichiki,60.4667,166.1,-23.94,94,14,6.78,RU,1677967706
354,Huangyan,28.6478,121.2594,44.98,87,0,1.34,CN,1677967707
355,Texarkana,33.4251,-94.0477,70.02,44,0,5.99,US,1677967707
356,Sinnamary,5.3833,-52.95,77.36,86,30,13.76,GF,1677967707
357,Starobaltachevo,56.0013,55.9213,29.44,97,100,13.49,RU,1677967708
358,Trofors,65.5333,13.4063,26.47,97,49,2.64,NO,1677967708
359,Tarakan,3.3,117.6333,77.31,82,96,12.12,ID,1677967708
360,Ozinki,51.1786,49.6769,31.08,86,100,12.53,RU,1677967708
361,Shahr-e Bābak,30.1165,55.1186,50.68,33,22,2.44,IR,1677967709
362,Jalingo,8.8833,11.3667,87.93,28,8,3.83,NG,1677967709
363,Campbell River,50.0163,-125.2446,40.44,100,75,3.44,CA,1677967709
364,Kavieng,-2.5744,150.7967,76.01,90,100,10.0,PG,1677967710
365,San Ramon,37.7799,-121.978,52.27,81,100,13.8,US,1677967425
366,Bilibino,68.0546,166.4372,-10.44,98,100,1.86,RU,1677967710
367,Ilulissat,69.2167,-51.1,42.82,52,88,13.8,GL,1677967710
368,Zapotiltic,19.6167,-103.4333,81.01,25,75,4.0,MX,1677967711
369,Galle,6.0367,80.217,75.36,85,95,6.76,LK,1677967711
370,Alice Springs,-23.7,133.8833,60.35,48,10,5.75,AU,1677967513
371,Cabedelo,-6.9811,-34.8339,81.27,77,100,13.24,BR,1677967721
372,Tam Ky,15.5667,108.4833,66.74,86,18,2.84,VN,1677967721
373,Kosino,58.4127,51.2782,14.04,99,98,3.02,RU,1677967722
374,Burpengary,-27.1575,152.9576,76.95,73,72,4.63,AU,1677967458
375,Fortuna,40.5982,-124.1573,48.65,85,40,5.75,US,1677967722
376,Hudson Bay,52.85,-102.3842,22.87,80,100,6.06,CA,1677967722
377,Kloulklubed,7.0419,134.2556,75.7,73,48,13.44,PW,1677967723
378,Rabo de Peixe,37.8,-25.5833,58.51,67,20,16.11,PT,1677967723
379,Basoko,1.2391,23.616,77.52,68,100,3.06,CD,1677967631
380,Karpathos,35.507,27.2132,60.76,72,97,19.57,GR,1677967723
381,Fort Nelson,58.8053,-122.7002,6.94,48,75,10.36,CA,1677967510
382,Ābādān,30.3392,48.3043,60.75,77,0,2.3,IR,1677967723
383,Chapais,49.7834,-74.8492,27.7,90,100,1.45,CA,1677967724
384,Port Blair,11.6667,92.75,78.6,78,1,5.5,IN,1677967724
385,Esil,51.9556,66.4042,20.82,87,100,12.39,KZ,1677967724
386,Ipixuna,-1.7625,-48.8043,74.59,94,100,2.77,BR,1677967724
387,Angoche,-16.2325,39.9086,76.37,93,100,7.54,MZ,1677967725
388,Elk Plain,47.0532,-122.3976,45.91,65,75,8.99,US,1677967725
389,Bowen,-20.0167,148.2333,78.12,77,89,10.0,AU,1677967725
390,São João da Barra,-21.6403,-41.0511,78.89,78,56,15.86,BR,1677967726
391,Mana,5.6592,-53.7767,77.34,85,41,12.39,GF,1677967726
392,Leh,34.1667,77.5833,10.08,91,85,1.54,IN,1677967726
393,Usinsk,65.9939,57.5281,-16.82,100,92,4.18,RU,1677967726
394,Malinovoye Ozero,51.6753,79.7825,14.81,89,97,5.03,RU,1677967727
395,Xining,36.6167,101.7667,32.76,30,0,2.13,CN,1677967727
396,Buarcos,40.166,-8.8768,49.66,74,100,5.28,PT,1677967727
397,Birjand,32.8663,59.2211,54.41,39,2,6.51,IR,1677967728
398,Lewiston,44.1003,-70.2148,30.7,93,100,10.36,US,1677967728
399,Mandera,3.9366,41.867,84.42,24,77,10.76,KE,1677967728
400,Santa Vitória do Palmar,-33.5189,-53.3681,72.59,74,28,7.52,BR,1677967728
401,Havre-St-Pierre,50.2334,-63.5986,17.02,78,18,9.69,CA,1677967729
402,Kumluca,36.3703,30.2869,59.63,76,98,2.71,TR,1677967729
403,Oranjestad,12.524,-70.027,77.5,83,3,26.19,AW,1677967664
404,Bani Walid,31.7566,13.9942,59.18,24,100,8.1,LY,1677967729
405,Kasongo-Lunda,-6.4667,16.8167,71.01,97,100,1.03,CD,1677967729
406,Chichli,22.8333,78.8167,73.26,26,26,5.28,IN,1677967730
407,Huilong,31.8111,121.655,41.94,79,0,9.08,CN,1677967730
408,Hammerfest,70.6634,23.6821,23.45,80,100,19.57,NO,1677967730
409,Fairbanks,64.8378,-147.7164,2.61,67,0,5.75,US,1677967686
410,Panama City,8.9936,-79.5197,87.3,67,40,13.8,PA,1677967685
411,Havelock,34.8791,-76.9013,75.18,45,0,10.38,US,1677967731
412,Mount Gambier,-37.8333,140.7667,58.98,77,7,5.48,AU,1677967731
413,Nanjing,32.0617,118.7778,50.13,55,36,3.85,CN,1677967731
414,Vyartsilya,62.1764,30.693,16.32,97,92,4.47,RU,1677967731
415,Outlook,51.5001,-107.0513,20.23,92,97,6.8,CA,1677967732
416,Georgsmarienhütte,52.2,8.05,38.28,83,100,7.45,DE,1677967732
417,Ekuvukeni,-28.4675,30.1551,62.19,95,10,1.66,ZA,1677967732
418,Sørland,67.667,12.6934,33.66,79,100,40.26,NO,1677967742
419,Broome,42.2506,-75.833,35.71,84,100,13.8,US,1677967743
420,Hobyo,5.3505,48.5268,77.7,78,70,16.24,SO,1677967743
421,Liverpool,53.4106,-2.9779,40.42,72,100,4.61,GB,1677967743
422,Flin Flon,54.7682,-101.865,13.37,81,93,9.93,CA,1677967744
423,Kampong Thom,12.7111,104.8887,67.75,66,24,5.3,KH,1677967744
424,Ampanihy,-24.7,44.75,68.94,97,100,13.6,MG,1677967744
425,Tevaitoa,-16.7833,-151.5,81.72,73,100,9.46,PF,1677967745
426,Guéret,46.1667,1.8667,29.55,96,7,3.09,FR,1677967745
427,Moose Factory,51.2585,-80.6094,32.38,99,100,4.9,CA,1677967745
428,Leningradskiy,69.3833,178.4167,-15.79,96,99,11.27,RU,1677967746
429,Esim,4.8699,-2.2405,80.31,85,69,6.62,GH,1677967746
430,Laguna,38.421,-121.4238,53.58,77,75,18.41,US,1677967746
431,Prado,-17.3411,-39.2208,76.37,81,9,6.31,BR,1677967746
432,Poum,-20.2333,164.0167,80.24,76,4,5.39,NC,1677967747
433,Dudinka,69.4058,86.1778,-14.39,98,100,6.69,RU,1677967747
434,Querecotillo,-4.8378,-80.6456,87.58,50,73,17.58,PE,1677967748
435,Nemuro,43.3236,145.575,26.38,83,7,12.15,JP,1677967748
436,Luwuk,-0.9516,122.7875,77.34,80,99,3.06,ID,1677967748
437,Wanaka,-44.7,169.15,51.12,81,100,1.99,NZ,1677967704
438,Yārāda,17.65,83.2667,76.12,56,0,4.38,IN,1677967749
439,Jāwā,31.8525,35.9393,53.91,50,0,3.44,JO,1677967749
440,Alès,44.1333,4.0833,45.68,67,4,6.69,FR,1677967750
441,Mata,40.683,-7.4592,48.0,67,64,1.01,PT,1677967750
442,Tuatapere,-46.1333,167.6833,53.1,72,95,2.39,NZ,1677967750
443,Victor Harbor,-35.5667,138.6167,67.68,69,28,6.6,AU,1677967750
444,Shakhty,47.7091,40.2144,38.82,80,60,17.29,RU,1677967528
445,Pavlovka,52.6897,47.1405,26.29,94,100,11.61,RU,1677967751
446,Pangnirtung,66.1451,-65.7125,24.01,86,83,7.05,CA,1677967751
447,Xinzhi,36.4989,111.7047,47.5,21,0,3.02,CN,1677967751
448,Valencia,39.3333,-0.8333,45.59,63,0,3.44,ES,1677967752
449,Lata,40.1629,-8.3327,51.08,75,100,2.55,PT,1677967752
450,Yerbogachën,61.2767,108.0108,10.49,90,100,8.68,RU,1677967753
451,Pathein,16.7833,94.7333,70.29,79,0,7.27,MM,1677967753
452,Quelimane,-17.8786,36.8883,74.16,97,74,4.81,MZ,1677967753
453,Sijunjung,-0.6876,100.9537,69.46,99,96,1.57,ID,1677967754
454,Oranjemund,-28.55,16.4333,64.02,82,0,5.08,NA,1677967754
455,Tartagal,-22.5164,-63.8013,85.8,55,42,3.33,AR,1677967754
456,Bandarbeyla,9.4942,50.8122,76.57,78,3,14.58,SO,1677967755
457,Kilindoni,-7.9139,39.6668,81.43,74,81,16.84,TZ,1677967755
458,Sakakah,29.9697,40.2064,66.15,20,0,7.9,SA,1677967755
459,Machaneng,-23.1862,27.4886,75.04,54,1,13.69,BW,1677967756
460,Salta,-24.7859,-65.4117,72.57,83,67,3.0,AR,1677967756
461,Tupik,54.4253,119.9327,12.69,84,98,4.09,RU,1677967614
462,San Jerónimo,-11.9472,-75.2829,61.27,64,97,6.38,PE,1677967756
463,Hambantota,6.1241,81.1185,75.54,100,75,4.61,LK,1677967756
464,Macheng,31.1783,115.0319,52.34,56,0,3.56,CN,1677967757
465,Pervomayskoye,43.919,46.7102,40.87,86,97,1.3,RU,1677967767
466,Saurimo,-9.6608,20.3916,65.48,96,100,3.53,AO,1677967767
467,Malbork,54.0359,19.0266,31.03,54,13,10.74,PL,1677967768
468,Tiruchchendur,8.4833,78.1167,79.23,82,100,16.42,IN,1677967768
469,Lashio,22.9333,97.75,55.56,51,0,1.41,MM,1677967768
470,Mozarlândia,-14.7447,-50.5706,80.55,71,69,4.81,BR,1677967769
471,Fairview,40.8126,-73.999,45.66,74,100,11.5,US,1677967539
472,Avera,33.194,-82.5271,76.51,43,0,8.93,US,1677967769
473,Comodoro Rivadavia,-45.8667,-67.5,62.46,27,0,13.8,AR,1677967769
474,North Myrtle Beach,33.816,-78.68,75.29,35,0,8.05,US,1677967770
475,Pimampiro,0.4,-77.9667,66.4,74,99,4.85,EC,1677967770
476,Mananara,-16.1667,49.7667,77.77,79,100,4.72,MG,1677967770
477,Nara,34.6851,135.8049,41.5,53,85,1.9,JP,1677967771
478,Orlik,52.5178,99.825,-1.97,97,80,2.93,RU,1677967771
479,Valga,57.7778,26.0473,30.0,91,99,1.99,EE,1677967771
480,Honningsvåg,70.9821,25.9704,26.35,74,75,27.63,NO,1677967772
481,Atambua,-9.1061,124.8925,71.82,90,89,1.43,ID,1677967772
482,Nässjö,57.6531,14.6968,23.92,57,5,10.96,SE,1677967772
483,Misratah,32.3754,15.0925,60.73,38,99,10.29,LY,1677967772
484,Pachelma,53.2443,43.3521,29.19,96,100,18.21,RU,1677967773
485,Acapulco de Juárez,16.8634,-99.8901,85.82,62,0,10.36,MX,1677967762
486,Calvià,39.5657,2.5062,47.95,71,0,5.37,ES,1677967773
487,Calderitas,18.55,-88.25,86.11,62,20,11.5,MX,1677967773
488,Grindavik,63.8424,-22.4338,37.87,100,75,6.91,IS,1677967774
489,Puerto Baquerizo Moreno,-0.9,-89.6,81.59,78,75,6.91,EC,1677967774
490,Palma di Montechiaro,37.1926,13.765,46.31,83,100,6.6,IT,1677967774
491,Mâncio Lima,-7.6142,-72.8958,80.65,77,99,1.39,BR,1677967774
492,Mbandaka,0.0487,18.2603,78.55,61,100,2.37,CD,1677967775
493,Amahai,-3.3333,128.9167,78.42,82,100,4.63,ID,1677967775
494,Dod Ballāpur,13.2919,77.5431,62.62,54,0,7.07,IN,1677967775
495,Montrose,38.4166,-108.2673,33.21,57,92,17.05,US,1677967776
496,Tongren,27.7172,109.1853,53.71,73,30,0.89,CN,1677967776
497,Rocha,-34.4833,-54.3333,74.82,68,18,7.02,UY,1677967776
498,Henties Bay,-22.116,14.2845,63.84,82,0,8.63,NA,1677967777
499,Xingtai,37.0631,114.4942,47.26,19,0,4.88,CN,1677967777
500,Charters Towers,-20.1,146.2667,72.52,83,98,10.76,AU,1677967777
501,Teahupoo,-17.8333,-149.2667,75.16,77,100,6.96,PF,1677967777
502,Rivadavia,-33.1905,-68.4608,90.72,15,0,8.12,AR,1677967778
503,Scottsbluff,41.8666,-103.6672,43.03,40,0,12.66,US,1677967778
504,Kalmar,56.6616,16.3616,31.96,55,1,10.0,SE,1677967778
505,Corning,42.1428,-77.0547,37.44,75,100,10.36,US,1677967213
506,Kyrylivka,46.3759,35.3675,41.52,92,35,20.69,UA,1677967779
507,Alofi,-19.0595,-169.9187,81.59,79,99,15.73,NU,1677967779
508,Kautokeino,69.0125,23.0412,20.95,95,100,11.92,NO,1677967779
509,Bama,11.5221,13.6856,85.1,15,67,7.81,NG,1677967780
510,Maţāy,28.419,30.7792,74.3,14,0,6.2,EG,1677967780
511,Turtas,58.9417,69.1325,9.64,98,97,5.26,RU,1677967790
512,Port Hardy,50.6996,-127.4199,42.4,69,15,4.59,CA,1677967790
513,Coahuayana Viejo,18.7333,-103.6833,84.49,47,69,7.18,MX,1677967791
514,Grand Gaube,-20.0064,57.6608,80.38,79,100,1.01,MU,1677967791
515,Hailey,43.5196,-114.3153,28.8,81,100,0.0,US,1677967791
516,Jiutai,44.1525,125.8328,32.04,65,0,8.14,CN,1677967792
517,Gweta,-20.1833,25.2333,81.54,35,1,2.68,BW,1677967792
518,San Quintín,30.4833,-115.95,58.44,67,1,15.23,MX,1677967792
519,Tateyama,34.9833,139.8667,49.1,72,100,16.82,JP,1677967792
520,Kununurra,-15.7667,128.7333,75.18,94,37,3.44,AU,1677967793
521,Kamenka,51.3223,42.7678,32.0,84,100,17.52,RU,1677967793
522,Nangomba,-10.9,38.5,72.23,91,100,6.04,TZ,1677967793
523,Zapolyarnyy,69.4154,30.8136,24.08,89,100,8.97,RU,1677967793
524,Urozhaynoye,44.7883,44.9228,41.4,78,96,5.77,RU,1677967794
525,Boa Vista,2.8197,-60.6733,85.98,54,40,10.36,BR,1677967794
526,Westport,41.1415,-73.3579,44.58,72,96,5.01,US,1677967232
527,Zeya,53.75,127.2667,14.92,100,100,3.13,RU,1677967794
528,Melito di Porto Salvo,37.9222,15.7714,52.92,87,100,9.22,IT,1677967794
529,Tete,-16.1564,33.5867,78.89,100,20,0.0,MZ,1677967795
530,Curaçá,-8.9903,-39.9094,88.61,35,64,13.58,BR,1677967567
531,Coyhaique,-45.5752,-72.0662,48.15,87,100,9.22,CL,1677967795
532,Mutoko,-17.397,32.2268,63.82,92,31,1.81,ZW,1677967795
533,Cockburn Town,21.4612,-71.1419,77.76,78,49,18.21,TC,1677967796
534,Raymond,43.9015,-70.4703,31.23,91,100,7.76,US,1677967796
535,Rawson,-43.3002,-65.1023,74.59,27,66,11.23,AR,1677967796
536,Kedrovyy,56.1667,91.8167,16.21,93,100,7.9,RU,1677967797
537,Juneau,58.3019,-134.4197,32.0,74,20,18.41,US,1677967797
538,Preiļi,56.2944,26.7246,28.63,94,100,14.79,LV,1677967530
539,Tuxpan,19.55,-103.4,82.54,25,76,8.21,MX,1677967797
540,Morondava,-20.2833,44.2833,77.02,88,100,23.31,MG,1677967797
541,Izberbash,42.5696,47.8645,41.09,89,68,4.92,RU,1677967798
542,St. Marys,30.7305,-81.5465,78.13,67,0,9.22,US,1677967797
543,Savalou,7.9281,1.9756,83.68,63,90,4.43,BJ,1677967588
544,Port Lincoln,-34.7333,135.8667,67.69,62,44,12.26,AU,1677967601
545,Togitsu,32.8333,129.85,40.98,93,0,11.5,JP,1677967798
546,Lages,-27.8161,-50.3261,64.63,96,16,2.93,BR,1677967798
547,Tirumullaivāsal,11.2333,79.8333,76.44,75,13,7.85,IN,1677967799
548,Port Moresby,-9.4431,147.1797,76.39,79,100,7.85,PG,1677967799
549,Porto-Novo,6.4965,2.6036,81.12,80,78,6.64,BJ,1677967799
550,Takhtamygda,54.1,123.5667,11.23,100,86,2.51,RU,1677967800
551,Atraulia,26.3333,82.95,66.36,36,0,8.77,IN,1677967800
552,Yatou,37.15,122.3833,39.33,76,100,6.08,CN,1677967800
553,Laureles,26.1092,-97.4941,80.64,58,4,8.99,US,1677967800
554,Codrington,-38.2667,141.9667,60.62,75,10,7.74,AU,1677967801
555,Kinkala,-4.3614,14.7644,74.68,88,97,2.84,CG,1677967801
556,Bata,1.8639,9.7658,81.39,82,29,5.86,GQ,1677967811
557,Lagunas,-5.2269,-75.6753,74.66,97,99,2.89,PE,1677967812
558,San Dionisio del Mar,16.3333,-94.75,83.34,58,8,8.99,MX,1677967812
559,Eyl,7.9803,49.8164,75.24,74,42,12.82,SO,1677967812
560,Clyde River,70.4692,-68.5914,0.88,77,99,5.32,CA,1677967757
561,Beïnamar,8.6698,15.3813,86.61,17,48,2.28,TD,1677967813
562,Opuwo,-18.0607,13.84,61.34,43,0,3.85,NA,1677967813
563,Inhambane,-23.865,35.3833,76.44,90,23,13.24,MZ,1677967813
